[
  {
    "name": "MCG",
    "aliases": ["Melbourne Cricket Ground"],
    "city": "Melbourne",
    "state": "VIC",
    "lat": -37.82,
    "lon": 144.984,
    "capacity": 100024,
    "indoor": false,
    "surface": "grass",
    "home_teams": ["Richmond", "Melbourne", "Collingwood"],
    "dimensions_x": null,
    "dimensions_y": null
  },
  {
    "name": "Marvel Stadium",
    "aliases": ["Docklands Stadium", "Etihad Stadium", "Docklands"],
    "city": "Melbourne",
    "state": "VIC",
    "lat": -37.817,
    "lon": 144.947,
    "capacity": 56347,
    "indoor": true,
    "surface": "grass",
    "roof_policy_note": "Roof closed all games 2019-2025; selectively open 2026",
    "home_teams": ["Essendon", "North Melbourne", "Western Bulldogs", "Carlton", "St Kilda"],
    "dimensions_x": null,
    "dimensions_y": null
  },
  {
    "name": "Adelaide Oval",
    "aliases": [],
    "city": "Adelaide",
    "state": "SA",
    "lat": -34.915,
    "lon": 138.596,
    "capacity": 53583,
    "indoor": false,
    "surface": "grass",
    "home_teams": ["Adelaide", "Port Adelaide"],
    "dimensions_x": null,
    "dimensions_y": null
  },
  {
    "name": "Optus Stadium",
    "aliases": ["Perth Stadium"],
    "city": "Perth",
    "state": "WA",
    "lat": -31.951,
    "lon": 115.889,
    "capacity": 60000,
    "indoor": false,
    "surface": "grass",
    "home_teams": ["West Coast Eagles", "Fremantle"],
    "dimensions_x": null,
    "dimensions_y": null
  },
  {
    "name": "The Gabba",
    "aliases": ["Brisbane Cricket Ground"],
    "city": "Brisbane",
    "state": "QLD",
    "lat": -27.486,
    "lon": 153.038,
    "capacity": 42000,
    "indoor": false,
    "surface": "grass",
    "home_teams": ["Brisbane Lions"],
    "dimensions_x": null,
    "dimensions_y": null
  },
  {
    "name": "SCG",
    "aliases": ["Sydney Cricket Ground"],
    "city": "Sydney",
    "state": "NSW",
    "lat": -33.891,
    "lon": 151.225,
    "capacity": 48000,
    "indoor": false,
    "surface": "grass",
    "home_teams": ["Sydney Swans"],
    "dimensions_x": null,
    "dimensions_y": null
  },
  {
    "name": "GMHBA Stadium",
    "aliases": ["Simonds Stadium", "Skilled Stadium"],
    "city": "Geelong",
    "state": "VIC",
    "lat": -38.157,
    "lon": 144.355,
    "capacity": 36000,
    "indoor": false,
    "surface": "grass",
    "home_teams": ["Geelong"],
    "dimensions_x": null,
    "dimensions_y": null
  },
  {
    "name": "People First Stadium",
    "aliases": ["Metricon Stadium", "Carrara Stadium"],
    "city": "Gold Coast",
    "state": "QLD",
    "lat": -28.005,
    "lon": 153.426,
    "capacity": 25000,
    "indoor": false,
    "surface": "grass",
    "home_teams": ["Gold Coast Suns"],
    "dimensions_x": null,
    "dimensions_y": null
  },
  {
    "name": "ENGIE Stadium",
    "aliases": ["Giants Stadium", "Spotless Stadium", "Stadium Australia (West)"],
    "city": "Sydney",
    "state": "NSW",
    "lat": -33.847,
    "lon": 151.003,
    "capacity": 24000,
    "indoor": false,
    "surface": "grass",
    "home_teams": ["Greater Western Sydney"],
    "dimensions_x": null,
    "dimensions_y": null
  },
  {
    "name": "York Park",
    "aliases": ["UTAS Stadium", "Aurora Stadium"],
    "city": "Launceston",
    "state": "TAS",
    "lat": -41.44,
    "lon": 147.125,
    "capacity": 22000,
    "indoor": false,
    "surface": "grass",
    "home_teams": [],
    "dimensions_x": null,
    "dimensions_y": null
  },
  {
    "name": "Manuka Oval",
    "aliases": [],
    "city": "Canberra",
    "state": "ACT",
    "lat": -35.322,
    "lon": 149.131,
    "capacity": 13500,
    "indoor": false,
    "surface": "grass",
    "home_teams": [],
    "dimensions_x": null,
    "dimensions_y": null
  },
  {
    "name": "TIO Traeger Park",
    "aliases": ["Traeger Park", "TIO Stadium"],
    "city": "Alice Springs",
    "state": "NT",
    "lat": -23.694,
    "lon": 133.877,
    "capacity": 12000,
    "indoor": false,
    "surface": "grass",
    "home_teams": [],
    "dimensions_x": null,
    "dimensions_y": null
  },
  {
    "name": "Mars Stadium",
    "aliases": ["Eureka Stadium", "Ballarat"],
    "city": "Ballarat",
    "state": "VIC",
    "lat": -37.552,
    "lon": 143.838,
    "capacity": 13500,
    "indoor": false,
    "surface": "grass",
    "home_teams": [],
    "dimensions_x": null,
    "dimensions_y": null
  },
  {
    "name": "Heritage Bank Stadium",
    "aliases": ["Riverway Stadium", "Townsville"],
    "city": "Townsville",
    "state": "QLD",
    "lat": -19.282,
    "lon": 146.761,
    "capacity": 25000,
    "indoor": false,
    "surface": "grass",
    "home_teams": [],
    "dimensions_x": null,
    "dimensions_y": null
  },
  {
    "name": "Norwood Oval",
    "aliases": [],
    "city": "Norwood",
    "state": "SA",
    "lat": -34.921,
    "lon": 138.631,
    "capacity": 12000,
    "indoor": false,
    "surface": "grass",
    "home_teams": [],
    "dimensions_x": null,
    "dimensions_y": null
  }
]
